,City,Lat,Lng,Max Temp,Humidity,Cloudiness,Wind Speed,Country,Date
0,bubaque,11.2833,-15.8333,24.430000000000007,54,100,6.87,GW,1675655109
1,arcelia,18.2833,-100.2667,24.140000000000043,37,0,1.46,MX,1675655452
2,wenchi,7.7392,-2.1046,23.510000000000048,77,84,1.81,GH,1675655452
3,samarai,-10.6167,150.6667,27.400000000000034,83,99,5.8,PG,1675655453
4,iranshahr,27.2025,60.6848,12.189999999999998,71,0,2.06,IR,1675655453
5,kawalu,-7.3817,108.2082,29.370000000000005,53,100,0.17,ID,1675655454
6,tromso,69.6496,18.957,3.0100000000000477,75,75,7.2,NO,1675655454
7,pevek,69.7008,170.3133,-37.93999999999997,100,94,1.45,RU,1675655455
8,chiredzi,-21.05,31.6667,19.29000000000002,75,0,0.9,ZW,1675655455
9,bethel,41.3712,-73.414,4.25,62,0,0.0,US,1675655456
10,lazaro cardenas,17.9583,-102.2,23.100000000000023,82,0,1.43,MX,1675655157
11,sao filipe,14.8961,-24.4956,20.30000000000001,65,45,6.94,CV,1675655456
12,albany,42.6001,-73.9662,4.230000000000018,65,100,1.81,US,1675655455
13,ushuaia,-54.8,-68.3,5.810000000000002,65,0,2.06,AR,1675655457
14,busselton,-33.65,115.3333,27.160000000000025,43,0,5.5,AU,1675655458
15,vanavara,60.34,102.2797,-11.279999999999973,93,100,2.81,RU,1675655458
16,sept-iles,50.2001,-66.3821,-14.0,79,100,3.6,CA,1675655304
17,komsomolskiy,40.4272,71.7189,3.400000000000034,93,100,2.06,UZ,1675655459
18,imeni poliny osipenko,52.4201,136.4853,-18.94999999999999,89,96,1.69,RU,1675655460
19,tshikapa,-6.4167,20.8,18.960000000000036,97,74,0.29,CD,1675655460
20,aktash,50.3,87.7333,-16.379999999999995,84,93,2.02,RU,1675655461
21,katsuura,35.1333,140.3,11.220000000000027,49,82,2.57,JP,1675655461
22,rikitea,-23.1203,-134.9692,26.04000000000002,76,3,6.63,PF,1675655462
23,longyearbyen,78.2186,15.6401,-4.089999999999975,86,20,4.63,SJ,1675655462
24,mataura,-46.1927,168.8643,19.140000000000043,54,95,4.33,NZ,1675655463
25,nikolskoye,59.7035,30.7861,-2.0600000000000023,97,100,1.51,RU,1675655464
26,tual,-5.6667,132.75,27.120000000000005,79,100,8.86,ID,1675655465
27,hilo,19.7297,-155.09,24.600000000000023,87,40,2.06,US,1675655465
28,hermanus,-34.4187,19.2345,21.0,89,61,5.75,ZA,1675655466
29,arvi,20.9833,78.2333,24.810000000000002,19,5,0.76,IN,1675655467
30,khatanga,71.9667,102.5,-37.089999999999975,100,44,2.85,RU,1675655468
31,hamilton,39.1834,-84.5333,7.970000000000027,70,100,3.6,US,1675655311
32,jamestown,42.097,-79.2353,3.170000000000016,93,100,4.63,US,1675655469
33,hithadhoo,-0.6,73.0833,27.379999999999995,70,96,4.89,MV,1675655470
34,ukiah,39.1502,-123.2078,7.939999999999998,88,0,4.12,US,1675655471
35,punta arenas,-53.15,-70.9167,9.060000000000002,81,75,3.09,CL,1675655471
36,marrakesh,31.6315,-8.0083,8.04000000000002,53,20,1.54,MA,1675655472
37,havelock,34.8791,-76.9013,13.970000000000027,90,100,0.89,US,1675655358
38,mount gambier,-37.8333,140.7667,21.230000000000018,49,8,4.26,AU,1675655473
39,port elizabeth,-33.918,25.5701,23.939999999999998,97,100,4.12,ZA,1675655451
40,treinta y tres,-33.2333,-54.3833,16.77000000000004,91,7,2.01,UY,1675655474
41,yulara,-25.2406,130.9889,32.28000000000003,10,0,4.24,AU,1675655474
42,tuy hoa,13.0833,109.3,25.970000000000027,77,47,2.09,VN,1675655475
43,asau,46.4333,26.4,-4.289999999999964,94,97,3.37,RO,1675655476
44,tiksi,71.6872,128.8694,-30.169999999999987,100,100,1.82,RU,1675655476
45,kapaa,22.0752,-159.319,25.99000000000001,86,75,6.17,US,1675655477
46,mar del plata,-38.0023,-57.5575,24.49000000000001,72,0,3.6,AR,1675655477
47,kimbe,-5.5502,150.1429,29.350000000000023,73,96,2.27,PG,1675655478
48,tuatapere,-46.1333,167.6833,19.58000000000004,52,84,5.17,NZ,1675655480
49,east london,-33.0153,27.9116,23.55000000000001,84,83,4.37,ZA,1675655480
50,bredasdorp,-34.5322,20.0403,20.74000000000001,88,65,5.49,ZA,1675655481
51,concepcion,-36.827,-73.0498,13.890000000000043,94,4,1.03,CL,1675655382
52,kodiak,57.79,-152.4072,2.730000000000018,93,100,1.54,US,1675655482
53,paamiut,61.994,-49.6678,-10.96999999999997,77,100,4.8,GL,1675655483
54,berlevag,70.8578,29.0864,3.9700000000000273,65,75,11.32,NO,1675655484
55,narsaq,60.9167,-46.05,-9.879999999999995,85,82,4.46,GL,1675655484
56,codrington,-38.2667,141.9667,19.310000000000002,57,51,4.7,AU,1675655485
57,lebu,-37.6167,-73.65,15.510000000000048,88,0,7.39,CL,1675655485
58,geraldton,-28.7667,114.6,26.230000000000018,53,40,6.69,AU,1675655198
59,kununurra,-15.7667,128.7333,34.99000000000001,26,37,1.54,AU,1675655488
60,airai,-8.9266,125.4092,20.980000000000018,74,87,1.7,TL,1675655488
61,port alfred,-33.5906,26.891,22.32000000000005,94,67,3.3,ZA,1675655489
62,moyo,3.6609,31.7247,20.400000000000034,36,54,0.44,UG,1675655489
63,vaini,-21.2,-175.2,29.090000000000032,65,40,3.09,TO,1675655490
64,butaritari,3.0707,172.7902,27.090000000000032,82,59,8.13,KI,1675655490
65,tuktoyaktuk,69.4541,-133.0374,-42.99999999999997,66,20,1.54,CA,1675655491
66,carnarvon,-24.8667,113.6333,28.560000000000002,58,0,8.21,AU,1675655491
67,caohe,30.2297,115.4335,13.160000000000025,68,100,1.96,CN,1675655492
68,redlands,34.0556,-117.1825,12.170000000000016,74,21,2.88,US,1675655492
69,mekhe,15.1097,-16.6218,17.420000000000016,54,47,5.66,SN,1675655492
70,arman,59.7,150.1667,-20.22999999999999,78,94,3.06,RU,1675655493
71,hasaki,35.7333,140.8333,12.220000000000027,55,53,2.98,JP,1675655493
72,arraial do cabo,-22.9661,-42.0278,23.560000000000002,88,61,1.87,BR,1675655494
73,brewster,41.3973,-73.6171,4.3799999999999955,67,0,0.0,US,1675655494
74,cherskiy,68.75,161.3,-39.29999999999998,99,100,2.0,RU,1675655495
75,waipawa,-41.4122,175.5153,21.29000000000002,56,0,5.52,NZ,1675655495
76,san patricio,28.017,-97.5169,18.80000000000001,92,0,3.61,US,1675655496
77,salalah,17.0151,54.0924,20.05000000000001,77,0,0.51,OM,1675655496
78,saskylakh,71.9167,114.0833,-41.23999999999998,100,97,1.76,RU,1675655497
79,olafsvik,64.8945,-23.7142,1.7100000000000364,73,70,15.49,IS,1675655498
80,ribeira grande,38.5167,-28.7,15.990000000000009,94,100,7.6,PT,1675655499
81,laguna,38.421,-121.4238,9.990000000000009,84,0,0.0,US,1675655499
82,andreapol,56.6513,32.2664,-8.549999999999955,90,100,3.25,RU,1675655500
83,mount isa,-20.7333,139.5,29.870000000000005,66,75,4.12,AU,1675655501
84,srednekolymsk,67.45,153.6833,-32.42999999999998,96,100,2.65,RU,1675655502
85,makakilo city,21.3469,-158.0858,26.180000000000007,66,75,9.26,US,1675655502
86,yellowknife,62.456,-114.3525,-19.68999999999997,77,100,5.66,CA,1675655305
87,fortuna,40.5982,-124.1573,8.29000000000002,95,100,4.63,US,1675655503
88,evanston,42.0411,-87.6901,0.5400000000000205,75,0,2.06,US,1675655504
89,oriximina,-1.7656,-55.8661,22.890000000000043,95,44,1.11,BR,1675655505
90,riyadh,24.6877,46.7219,16.08000000000004,55,6,6.05,SA,1675655407
91,bluff,-46.6,168.3333,15.439999999999998,76,82,10.82,NZ,1675655506
92,saint-philippe,-21.3585,55.7679,27.77000000000004,80,68,5.54,RE,1675655506
93,shenjiamen,29.9576,122.298,10.810000000000002,97,100,4.8,CN,1675655507
94,cockburn town,21.4612,-71.1419,25.49000000000001,80,1,9.55,TC,1675655494
95,avarua,-21.2078,-159.775,27.03000000000003,83,20,5.66,CK,1675655508
96,san andres,12.5847,-81.7006,27.010000000000048,83,75,6.69,CO,1675655509
97,qandala,11.472,49.8728,22.5,77,30,2.11,SO,1675655510
98,khash,28.2211,61.2158,9.180000000000007,39,0,2.04,IR,1675655510
99,srandakan,-7.9386,110.2506,27.55000000000001,75,99,1.68,ID,1675655510
100,vila velha,-20.3297,-40.2925,26.08000000000004,84,0,2.57,BR,1675655511
101,namibe,-15.1961,12.1522,21.220000000000027,82,97,2.06,AO,1675655511
102,husavik,66.0449,-17.3389,2.07000000000005,65,92,8.41,IS,1675655230
103,magistralnyy,56.1725,107.4458,-10.139999999999986,92,100,2.22,RU,1675655512
104,severo-kurilsk,50.6789,156.125,-2.5499999999999545,63,100,9.02,RU,1675655513
105,barrow,71.2906,-156.7887,-30.98999999999998,76,40,3.09,US,1675655513
106,dongsheng,39.8161,109.9776,-1.0699999999999932,28,16,1.91,CN,1675655513
107,norman wells,65.282,-126.8329,-24.97999999999999,77,100,1.54,CA,1675655447
108,bilma,18.6853,12.9164,15.629999999999995,16,11,6.28,NE,1675655514
109,champerico,14.3,-91.9167,25.879999999999995,74,10,2.37,GT,1675655515
110,bengkulu,-3.8004,102.2655,28.629999999999995,63,79,5.11,ID,1675655515
111,new norfolk,-42.7826,147.0587,23.720000000000027,44,41,3.58,AU,1675655516
112,georgetown,5.4112,100.3354,26.970000000000027,83,20,2.06,MY,1675655329
113,yozgat,39.5833,35.3333,-2.6999999999999886,93,100,6.55,TR,1675655517
114,bambous virieux,-20.3428,57.7575,27.900000000000034,94,40,1.54,MU,1675655517
115,sarangani,5.4033,125.4636,27.28000000000003,77,70,7.62,PH,1675655517
116,oktyabrskiy,54.4815,53.471,-9.339999999999975,97,100,0.76,RU,1675655518
117,beloha,-25.1667,45.05,22.430000000000007,88,100,4.4,MG,1675655518
118,haimen,23.1935,116.6142,17.939999999999998,87,98,2.88,CN,1675655519
119,anito,12.4497,125.2886,27.379999999999995,82,49,4.59,PH,1675655519
120,qaanaaq,77.484,-69.3632,-24.089999999999975,85,58,2.97,GL,1675655520
121,hoi an,15.8794,108.335,27.980000000000018,80,100,2.59,VN,1675655520
122,yumen,40.2833,97.2,1.2600000000000477,28,100,1.11,CN,1675655521
123,luderitz,-26.6481,15.1594,16.27000000000004,93,84,0.35,NA,1675655521
124,isangel,-19.55,169.2667,29.33000000000004,72,100,2.06,VU,1675655522
125,hobart,-42.8794,147.3294,23.920000000000016,47,0,7.72,AU,1675655254
126,bend,44.0582,-121.3153,3.7900000000000205,72,81,1.34,US,1675655375
127,plettenberg bay,-34.0527,23.3716,20.680000000000007,97,81,2.48,ZA,1675655525
128,swan hill,-35.3378,143.5544,29.5,22,17,4.01,AU,1675655525
129,broome,42.2506,-75.833,5.470000000000027,60,100,3.6,US,1675655526
130,puerto ayora,-0.7393,-90.3518,26.420000000000016,91,29,3.13,EC,1675655528
131,cravo norte,6.3017,-70.2041,26.670000000000016,59,88,1.88,CO,1675655529
132,necochea,-38.5473,-58.7368,21.629999999999995,58,100,2.25,AR,1675655530
133,esperance,-33.8667,121.9,30.220000000000027,39,73,7.05,AU,1675655531
134,miles city,46.4083,-105.8406,2.5400000000000205,75,100,2.57,US,1675655531
135,manzanillo,20.3433,-77.1167,23.07000000000005,81,19,2.42,CU,1675655532
136,yerbogachen,61.2767,108.0108,-24.809999999999974,98,100,1.16,RU,1675655533
137,jinji,23.2281,110.8261,17.260000000000048,90,95,1.1,CN,1675655534
138,the pas,53.8251,-101.2541,-8.989999999999952,86,100,6.17,CA,1675655536
139,piney green,34.716,-77.3202,11.640000000000043,68,75,2.57,US,1675655536
140,mogadouro,41.3403,-6.7119,-0.2599999999999909,89,30,2.66,PT,1675655537
141,rio gallegos,-51.6226,-69.2181,12.03000000000003,54,75,3.6,AR,1675655502
142,tiarei,-17.5333,-149.3333,30.010000000000048,77,100,6.29,PF,1675655538
143,yuzawa,39.1667,140.5,1.7900000000000205,100,100,1.33,JP,1675655541
144,karratha,-20.7377,116.8463,37.83000000000004,27,0,5.14,AU,1675655541
145,salinas,36.6777,-121.6555,10.840000000000032,80,20,3.6,US,1675655377
146,ampanihy,-24.7,44.75,22.33000000000004,84,99,3.11,MG,1675655542
147,ilulissat,69.2167,-51.1,-17.98999999999998,71,100,8.23,GL,1675655543
148,bay roberts,47.5999,-53.2648,-1.079999999999984,87,96,3.58,CA,1675655544
149,castro,-24.7911,-50.0119,15.730000000000018,84,13,2.11,BR,1675655545
150,kahului,20.8947,-156.47,25.010000000000048,77,0,8.75,US,1675655274
151,mahebourg,-20.4081,57.7,27.920000000000016,94,40,1.54,MU,1675655551
152,harper,4.375,-7.7169,26.05000000000001,84,92,2.94,LR,1675655551
153,sorland,67.667,12.6934,5.920000000000016,85,100,13.07,NO,1675655552
154,havre-saint-pierre,50.2334,-63.5986,-14.0,84,100,3.09,CA,1675655552
155,zhigansk,66.7697,123.3711,-38.809999999999974,93,100,1.74,RU,1675655553
156,ostersund,63.1792,14.6357,-0.75,80,75,3.09,SE,1675655553
157,upernavik,72.7868,-56.1549,-26.18999999999997,94,100,6.15,GL,1675655554
158,lompoc,34.6391,-120.4579,11.550000000000011,84,20,8.75,US,1675655311
159,port hedland,-20.3167,118.5667,37.03000000000003,41,0,5.66,AU,1675655555
160,mogadishu,2.0371,45.3438,23.930000000000007,88,40,6.17,SO,1675655555
161,lulea,65.5842,22.1547,-9.95999999999998,100,35,1.03,SE,1675655556
162,andenes,69.3143,16.1194,2.990000000000009,70,100,8.23,NO,1675655556
163,chapais,49.7834,-74.8492,-18.119999999999976,100,91,1.71,CA,1675655556
164,ahipara,-35.1667,173.1667,22.470000000000027,74,65,3.79,NZ,1675655557
165,comodoro rivadavia,-45.8667,-67.5,15.920000000000016,77,0,3.6,AR,1675655558
166,kastoria,40.5167,21.2667,-5.0499999999999545,66,63,2.67,GR,1675655558
167,abay,49.6311,72.8539,-5.789999999999964,96,96,2.52,KZ,1675655558
168,anqing,30.5092,117.0506,10.990000000000009,80,100,2.02,CN,1675655559
169,onega,63.9061,38.1404,-12.96999999999997,97,99,2.12,RU,1675655559
170,lata,40.1629,-8.3327,7.82000000000005,78,0,2.43,PT,1675655560
171,muroto,33.2833,134.15,10.879999999999995,59,100,2.59,JP,1675655560
172,methoni,36.8197,21.7049,6.230000000000018,56,32,2.29,GR,1675655561
173,rotterdam,51.9225,4.4792,4.9500000000000455,92,72,0.51,NL,1675655263
174,nagato,34.3833,131.2,10.020000000000039,48,100,0.63,JP,1675655561
175,alihe,50.5667,123.7167,-12.079999999999984,67,16,1.68,CN,1675655562
176,caravelas,-17.7125,-39.2481,25.24000000000001,85,0,4.25,BR,1675655562
177,atuona,-9.8,-139.0333,26.08000000000004,75,15,7.44,PF,1675655563
178,krasnoarmeysk,51.0239,45.6969,-16.97999999999996,99,98,2.21,RU,1675655563
179,axim,4.8699,-2.2405,26.260000000000048,91,85,3.35,GH,1675655564
180,richards bay,-28.783,32.0377,23.210000000000036,86,43,0.52,ZA,1675655564
181,ixtapa,20.7,-105.2,21.79000000000002,86,1,0.97,MX,1675655565
182,lima,-12.0432,-77.0282,24.939999999999998,78,0,5.66,PE,1675655441
183,bonthe,7.5264,-12.505,24.360000000000014,84,100,1.81,SL,1675655565
184,kavieng,-2.5744,150.7967,28.910000000000025,70,83,2.86,PG,1675655566
185,algodones,20.3888,-105.4773,19.52000000000004,68,2,2.54,MX,1675655566
186,poum,-20.2333,164.0167,28.860000000000014,78,96,7.73,NC,1675655567
187,seguela,7.9611,-6.6731,24.33000000000004,49,92,1.85,CI,1675655567
188,alta floresta,-9.8756,-56.0861,22.060000000000002,96,99,0.88,BR,1675655568
189,peniche,39.3558,-9.3811,11.360000000000014,61,3,3.32,PT,1675655568
190,sakaiminato,35.55,133.2333,8.990000000000009,57,75,1.54,JP,1675655569
191,marystown,47.1666,-55.1483,0.8400000000000318,97,100,11.99,CA,1675655343
192,la paz,-16.5,-68.15,7.990000000000009,100,75,3.6,BO,1675655426
193,cidreira,-30.1811,-50.2056,21.640000000000043,84,96,2.3,BR,1675655570
194,ilula,-7.6766,36.0366,15.78000000000003,91,81,0.71,TZ,1675655570
195,copala,16.65,-98.9833,24.450000000000045,73,0,1.44,MX,1675655571
196,vilyuysk,63.7553,121.6247,-38.21999999999997,95,83,2.03,RU,1675655571
197,humaita,-7.5061,-63.0208,22.700000000000045,96,63,0.98,BR,1675655572
198,aklavik,68.2191,-135.0107,-41.339999999999975,100,39,0.67,CA,1675655572
199,tigil,57.8,158.6667,-17.120000000000005,91,99,1.87,RU,1675655573
200,terrace,54.5163,-128.6035,2.9500000000000455,87,100,7.72,CA,1675655573
201,panaba,21.2833,-88.2667,20.78000000000003,85,34,3.03,MX,1675655573
202,grand gaube,-20.0064,57.6608,27.99000000000001,73,89,3.13,MU,1675655574
203,montepuez,-13.1256,38.9997,20.620000000000005,98,100,2.04,MZ,1675655574
204,te anau,-45.4167,167.7167,18.75,51,92,3.06,NZ,1675655575
205,noyabrsk,63.1994,75.4507,-19.70999999999998,100,99,0.17,RU,1675655575
206,souillac,-20.5167,57.5167,25.210000000000036,94,40,1.54,MU,1675655576
207,talnakh,69.4865,88.3972,-17.109999999999957,99,100,0.76,RU,1675655576
208,beisfjord,68.3751,17.5988,3.2800000000000296,83,100,3.49,NO,1675655577
209,kempsey,-31.0833,152.8333,28.30000000000001,58,6,4.92,AU,1675655577
210,naze,28.3667,129.4833,17.510000000000048,93,100,8.6,JP,1675655577
211,kruisfontein,-34.0033,24.7314,22.710000000000036,96,97,2.51,ZA,1675655578
212,moanda,-1.5575,13.2178,21.450000000000045,90,86,1.36,GA,1675655578
213,half moon bay,37.4636,-122.4286,10.420000000000016,85,75,8.75,US,1675655545
214,chuy,-33.6971,-53.4616,18.04000000000002,85,0,2.19,UY,1675655579
215,oyama,36.3,139.8,11.07000000000005,36,15,0.71,JP,1675655580
216,praya,14.9215,-23.5087,19.920000000000016,65,86,9.54,CV,1675655580
217,nur,52.6683,22.3221,-4.609999999999957,86,100,1.93,PL,1675655580
218,palana,59.1167,159.9667,-19.72999999999999,97,64,4.04,RU,1675655581
219,provideniya,64.3833,-173.3,-13.939999999999998,72,100,7.15,RU,1675655582
220,dikson,73.5069,80.5464,-17.68999999999997,97,100,1.47,RU,1675655584
221,cape town,-33.9258,18.4232,21.180000000000007,85,0,6.17,ZA,1675655414
222,portland,45.5234,-122.6762,9.050000000000011,86,100,3.6,US,1675655586
223,lasa,46.6166,10.7002,0.4900000000000091,92,57,2.56,IT,1675655587
224,kaitangata,-46.2817,169.8464,19.710000000000036,53,68,4.99,NZ,1675655587
225,meriden,41.5382,-72.807,4.100000000000023,86,0,0.45,US,1675655378
226,thompson,55.7435,-97.8558,-12.909999999999968,85,100,1.03,CA,1675655588
227,yate,51.5407,-2.4184,1.8500000000000227,93,10,1.42,GB,1675655590
228,redmond,47.674,-122.1215,8.710000000000036,94,100,0.89,US,1675655365
229,tilichiki,60.4667,166.1,-25.649999999999977,94,14,3.37,RU,1675655592
230,coihaique,-45.5752,-72.0662,13.970000000000027,47,0,2.57,CL,1675655493
231,kieta,-6.2167,155.6333,27.25,80,100,2.15,PG,1675655593
232,atar,20.5169,-13.0499,14.400000000000034,30,70,4.35,MR,1675655593
233,inuvik,68.3499,-133.7218,-37.51999999999998,67,20,0.0,CA,1675655594
234,backa palanka,45.2508,19.3919,-3.919999999999959,64,3,4.85,RS,1675655595
235,saint-francois,46.4154,3.9054,4.82000000000005,81,100,4.12,FR,1675655596
236,bom sucesso,-21.0331,-44.7581,19.30000000000001,91,100,0.75,BR,1675655597
237,ostrovnoy,68.0531,39.5131,-9.539999999999964,88,100,8.17,RU,1675655598
238,lavrentiya,65.5833,-171.0,-22.789999999999964,91,90,3.89,RU,1675655599
239,cap malheureux,-19.9842,57.6142,28.04000000000002,73,91,3.13,MU,1675655601
240,mumford,5.2618,-0.759,25.860000000000014,91,99,3.57,GH,1675655601
241,oron,4.8256,8.2343,25.920000000000016,86,80,1.17,NG,1675655602
242,merrill,45.1805,-89.6835,-4.1299999999999955,86,40,0.0,US,1675655580
243,kajaani,64.2273,27.7285,-6.96999999999997,93,100,3.09,FI,1675655604
244,olinda,-8.0089,-34.8553,25.850000000000023,83,75,1.54,BR,1675655415
245,coquimbo,-29.9533,-71.3436,18.850000000000023,82,0,2.06,CL,1675655501
246,north bend,43.4065,-124.2243,8.810000000000002,81,100,2.57,US,1675655606
247,huntington,38.4193,-82.4452,10.5,67,40,3.6,US,1675655607
248,asfi,32.2994,-9.2372,12.100000000000023,65,0,0.94,MA,1675655608
249,belaya gora,68.5333,146.4167,-39.41999999999999,100,99,1.36,RU,1675655609
250,tire,38.0888,27.7351,1.410000000000025,87,100,5.17,TR,1675655610
251,navirai,-23.065,-54.1906,21.28000000000003,76,53,0.57,BR,1675655315
252,francisco sa,-16.4758,-43.4883,25.08000000000004,78,7,1.78,BR,1675655611
253,kaeo,-35.1,173.7833,20.260000000000048,92,100,2.73,NZ,1675655612
254,dawei,14.0833,98.2,30.430000000000007,55,8,2.16,MM,1675655612
255,san lawrenz,36.0553,14.204,5.670000000000016,53,4,8.54,MT,1675655613
256,tasiilaq,65.6145,-37.6368,-5.909999999999968,93,100,4.19,GL,1675655613
257,ponta do sol,32.6667,-17.1,16.350000000000023,61,5,2.48,PT,1675655614
258,chilakalurupet,16.0833,80.1667,26.210000000000036,60,20,2.18,IN,1675655614
259,moose factory,51.2585,-80.6094,-28.00999999999999,83,75,1.03,CA,1675655615
260,sibolga,1.7427,98.7792,27.120000000000005,73,100,0.74,ID,1675655615
261,gizo,-8.103,156.8419,26.33000000000004,86,100,7.37,SB,1675655616
262,puerto baquerizo moreno,-0.9,-89.6,25.600000000000023,81,50,2.47,EC,1675655616
263,gat,31.61,34.7642,12.439999999999998,24,4,8.82,IL,1675655617
264,verkhnyaya inta,65.9811,60.3094,-15.639999999999986,96,98,3.85,RU,1675655618
265,gorontalo,0.5412,123.0595,31.07000000000005,54,85,0.88,ID,1675655618
266,klaksvik,62.2266,-6.589,9.510000000000048,90,100,15.52,FO,1675655619
267,itarema,-2.9248,-39.9167,24.680000000000007,89,50,3.15,BR,1675655620
268,alekseyevsk,57.8406,108.3492,-10.819999999999993,93,100,2.42,RU,1675655620
269,santa rosa,14.3122,121.1114,30.610000000000014,70,70,4.91,PH,1675655621
270,pacific grove,36.6177,-121.9166,10.610000000000014,83,75,3.58,US,1675655603
271,atambua,-9.1061,124.8925,26.189999999999998,72,88,2.02,ID,1675655621
272,korla,41.7597,86.1469,0.07000000000005002,53,25,1.01,CN,1675655622
273,saint george,37.1041,-113.5841,7.330000000000041,74,100,6.17,US,1675655473
274,talcahuano,-36.7167,-73.1167,13.82000000000005,94,4,1.03,CL,1675655622
275,lydenburg,-25.0978,30.4597,13.310000000000002,91,0,1.21,ZA,1675655623
276,san cristobal,7.7669,-72.225,22.100000000000023,89,16,1.25,VE,1675655623
277,sao joao da barra,-21.6403,-41.0511,24.160000000000025,94,11,1.35,BR,1675655584
278,turayf,31.6725,38.6637,4.140000000000043,70,0,2.06,SA,1675655624
279,touros,-5.1989,-35.4608,25.810000000000002,81,12,3.07,BR,1675655624
280,engenheiro beltrao,-23.7972,-52.2692,23.610000000000014,83,16,0.87,BR,1675655625
281,sur,22.5667,59.5289,22.55000000000001,61,6,1.87,OM,1675655626
282,nanchang,28.6833,115.8833,11.840000000000032,76,99,0.65,CN,1675655626
283,grindavik,63.8424,-22.4338,1.9700000000000273,100,100,12.86,IS,1675655627
284,chokurdakh,70.6333,147.9167,-37.04999999999998,100,92,1.15,RU,1675655627
285,channel-port aux basques,47.5702,-59.1367,0.4399999999999977,99,100,5.56,CA,1675655628
286,carnduff,49.1667,-101.8009,-7.009999999999991,89,93,4.16,CA,1675655628
287,cabo san lucas,22.8909,-109.9124,21.400000000000034,75,71,5.65,MX,1675655554
288,liverpool,53.4106,-2.9779,0.7700000000000387,89,0,1.54,GB,1675655514
289,mirnyy,62.5353,113.9611,-33.539999999999964,95,76,0.88,RU,1675655629
290,koutsouras,35.0339,25.9469,6.730000000000018,80,41,18.02,GR,1675655630
291,laredo,27.5064,-99.5075,19.160000000000025,55,0,3.6,US,1675655630
292,egvekinot,66.3167,-179.1667,-27.68999999999997,88,100,4.86,RU,1675655631
293,mabama,-5.1333,32.5333,17.180000000000007,92,100,1.49,TZ,1675655632
294,san ramon,37.7799,-121.978,9.270000000000039,87,0,6.69,US,1675655632
295,krasnoselkup,65.7,82.4667,-26.399999999999977,100,78,1.15,RU,1675655633
296,muscat,23.6139,58.5922,18.010000000000048,55,89,3.31,OM,1675655412
297,haapiti,-17.5667,-149.8667,29.850000000000023,76,95,5.71,PF,1675655633
298,longonjo,-12.9067,15.2533,16.390000000000043,92,100,0.79,AO,1675655634
299,sakakah,29.9697,40.2064,5.760000000000048,44,9,4.87,SA,1675655352
300,aksu,41.1231,80.2644,-2.329999999999984,64,100,1.27,CN,1675655635
301,giraldo,6.6831,-75.9892,10.840000000000032,93,66,0.55,CO,1675655635
302,bowen,-20.0167,148.2333,29.77000000000004,72,42,7.79,AU,1675655636
303,najran,17.4924,44.1277,15.360000000000014,49,92,1.83,SA,1675655352
304,licata,37.1071,13.9461,4.6299999999999955,64,0,3.57,IT,1675655636
305,bilibino,68.0546,166.4372,-36.349999999999966,100,100,0.72,RU,1675655637
306,lakatoro,-16.0999,167.4164,28.480000000000018,76,100,6.05,VU,1675655637
307,eyl,7.9803,49.8164,22.870000000000005,80,60,6.28,SO,1675655638
308,haines junction,60.7522,-137.5108,-11.029999999999973,85,100,1.03,CA,1675655638
309,petropavlovsk-kamchatskiy,53.0452,158.6483,-1.669999999999959,47,40,1.0,RU,1675655639
310,soyo,-6.1349,12.3689,25.129999999999995,86,50,1.64,AO,1675655638
311,sao jose da coroa grande,-8.8978,-35.1478,25.140000000000043,87,36,2.59,BR,1675655639
312,parrita,9.5201,-84.3225,24.49000000000001,70,5,1.78,CR,1675655640
313,petropavlovka,50.6114,105.3196,-13.389999999999986,84,42,1.24,RU,1675655640
314,levokumskoye,44.8219,44.6606,-4.289999999999964,96,76,3.6,RU,1675655641
315,fayaoue,-20.65,166.5333,28.510000000000048,77,100,3.39,NC,1675655642
316,emerald,-23.5333,148.1667,31.30000000000001,60,69,6.1,AU,1675655643
317,kamwenge,0.1866,30.4539,18.53000000000003,46,87,0.83,UG,1675655644
318,tocopilla,-22.092,-70.1979,22.590000000000032,84,4,1.68,CL,1675655645
319,burnie,-41.0667,145.9167,21.28000000000003,47,16,5.78,AU,1675655647
320,ancud,-41.8697,-73.8203,11.170000000000016,89,42,1.93,CL,1675655592
321,mosquera,4.7059,-74.2302,12.050000000000011,76,40,1.03,CO,1675655648
322,bodden town,19.2833,-81.25,25.0,31,0,1.03,KY,1675655649
323,thinadhoo,0.5333,72.9333,27.27000000000004,73,100,3.89,MV,1675655650
324,port blair,11.6667,92.75,29.02000000000004,74,40,4.12,IN,1675655651
325,viedma,-40.8135,-62.9967,20.0,72,60,8.25,AR,1675655500
326,uige,-7.6087,15.0613,18.58000000000004,97,100,0.25,AO,1675655653
327,mont-dore,-22.2833,166.5833,33.33000000000004,99,86,4.49,NC,1675655654
328,nizhniy tsasuchey,50.5167,115.1333,-11.019999999999982,67,7,4.97,RU,1675655655
329,talaya,61.3833,152.75,-30.889999999999986,96,100,1.38,RU,1675655657
330,damaturu,11.747,11.9608,21.07000000000005,21,66,4.24,NG,1675655658
331,rawson,-43.3002,-65.1023,17.110000000000014,63,53,6.55,AR,1675655447
332,mushie,-3.0167,16.9,21.53000000000003,90,95,1.38,CD,1675655660
333,guilin,25.2819,110.2864,8.060000000000002,88,100,0.8,CN,1675655661
334,sitka,57.0531,-135.33,5.939999999999998,65,100,11.32,US,1675655662
335,denizli,37.8402,29.0698,-0.16999999999995907,88,100,5.23,TR,1675655663
336,dreux,48.6667,1.25,1.5900000000000318,96,14,3.87,FR,1675655663
337,college,64.8569,-147.8028,-20.00999999999999,84,40,2.06,US,1675655665
338,cervo,43.6702,-7.4101,8.550000000000011,82,38,9.48,ES,1675655666
339,brae,60.3964,-1.353,8.360000000000014,89,100,11.21,GB,1675655667
340,chumikan,54.7183,135.315,-18.72999999999999,82,34,7.66,RU,1675655668
341,kidal,18.4411,1.4078,21.74000000000001,13,6,3.41,ML,1675655669
342,constitucion,-35.3333,-72.4167,15.32000000000005,83,12,1.53,CL,1675655670
343,beringovskiy,63.05,179.3167,-28.21999999999997,94,96,4.84,RU,1675655671
344,kindu,-2.95,25.95,19.79000000000002,99,92,1.32,CD,1675655672
345,wakuya,38.5333,141.1333,7.980000000000018,64,38,3.51,JP,1675655673
346,fare,-16.7,-151.0167,27.510000000000048,75,74,6.67,PF,1675655674
347,kovernino,57.1253,43.8142,-17.269999999999982,100,89,0.87,RU,1675655675
348,katobu,-4.9408,122.5276,30.610000000000014,61,100,2.3,ID,1675655675
349,coos bay,43.3665,-124.2179,8.850000000000023,81,100,2.57,US,1675655656
350,hualmay,-11.0964,-77.6139,22.33000000000004,83,61,2.77,PE,1675655677
351,yankton,42.8711,-97.3973,-1.599999999999966,86,0,3.09,US,1675655678
352,collierville,35.042,-89.6645,8.32000000000005,91,0,0.0,US,1675655542
353,pisco,-13.7,-76.2167,23.03000000000003,88,0,3.6,PE,1675655680
354,ilhabela,-23.7781,-45.3581,24.970000000000027,88,100,1.64,BR,1675655681
355,nara,34.6851,135.8049,11.939999999999998,29,100,1.56,JP,1675655681
356,mehamn,71.0357,27.8492,3.9500000000000455,65,20,5.14,NO,1675655682
357,sisimiut,66.9395,-53.6735,-16.299999999999955,92,100,4.64,GL,1675655683
358,cayenne,4.9333,-52.3333,22.02000000000004,100,100,0.0,GF,1675655684
359,broken hill,-31.95,141.4333,29.58000000000004,21,0,5.32,AU,1675655684
360,valparaiso,-33.0393,-71.6273,16.80000000000001,77,0,2.06,CL,1675655542
361,morros,-9.4467,-46.3003,23.57000000000005,63,56,1.28,BR,1675655685
362,kirakira,-10.4544,161.9205,26.120000000000005,90,100,9.86,SB,1675655684
363,jiuquan,39.7432,98.5174,1.9600000000000364,27,95,2.15,CN,1675655577
364,eureka,40.8021,-124.1637,8.439999999999998,94,74,3.58,US,1675655498
365,pinawa,50.1489,-95.8811,-10.849999999999966,94,44,3.74,CA,1675655687
366,kitimat,54.0524,-128.6534,3.2800000000000296,59,100,1.51,CA,1675655459
367,sao joaquim,-28.2939,-49.9317,9.870000000000005,83,0,0.59,BR,1675655688
368,torbay,47.6666,-52.7314,-1.509999999999991,84,75,8.75,CA,1675655674
369,kanigoro,-8.13,112.219,29.54000000000002,64,93,3.34,ID,1675655689
370,sampit,-2.5333,112.95,31.390000000000043,57,100,1.57,ID,1675655689
371,padang,-0.9492,100.3543,31.03000000000003,63,100,2.33,ID,1675655690
372,puerto colombia,10.9878,-74.9547,26.05000000000001,79,73,9.95,CO,1675655690
373,taoudenni,22.6783,-3.9836,14.120000000000005,30,82,4.24,ML,1675655691
374,coahuayana,18.7333,-103.6833,21.02000000000004,83,0,1.4,MX,1675655691
375,ayan,56.45,138.1667,-18.319999999999965,65,64,2.25,RU,1675655691
376,vardo,70.3705,31.1107,2.990000000000009,81,40,12.35,NO,1675655692
377,dickinson,29.4608,-95.0513,17.850000000000023,88,20,3.09,US,1675655452
378,mercedes,-34.6515,-59.4307,22.100000000000023,45,12,2.58,AR,1675655693
379,cocoa beach,28.32,-80.6076,18.33000000000004,88,0,2.57,US,1675655693
380,prainha,-1.8,-53.48,22.210000000000036,97,79,1.28,BR,1675655693
381,deputatskiy,69.3,139.9,-38.74999999999997,98,79,2.33,RU,1675655694
382,ballina,-28.8667,153.5667,29.450000000000045,67,93,3.91,AU,1675655695
383,tucurui,-3.7661,-49.6725,22.180000000000007,98,80,1.18,BR,1675655695
384,uinskoye,56.8817,56.5813,-14.339999999999975,99,100,1.2,RU,1675655695
385,linqing,36.8456,115.7117,10.170000000000016,39,98,1.88,CN,1675655696
386,shache,38.4167,77.2406,-2.319999999999993,68,100,1.93,CN,1675655696
387,upington,-28.4478,21.2561,21.210000000000036,83,0,1.54,ZA,1675655697
388,hendek,40.7994,30.7481,3.0,96,100,3.28,TR,1675655697
389,palmer,42.1584,-72.3287,4.710000000000036,71,0,2.57,US,1675655698
390,general roca,-39.0333,-67.5833,25.900000000000034,18,0,7.49,AR,1675655698
391,nabire,-3.3667,135.4833,27.24000000000001,85,100,1.94,ID,1675655603
392,anchorage,61.2181,-149.9003,-2.509999999999991,86,100,6.17,US,1675655586
393,aswan,24.0934,32.907,12.610000000000014,32,0,0.0,EG,1675655699
394,auki,-8.7676,160.7034,24.730000000000018,93,100,5.05,SB,1675655699
395,port augusta,-32.5,137.7667,32.43000000000001,20,10,4.41,AU,1675655700
396,sovetskiy,61.3614,63.5842,-19.109999999999985,99,98,1.37,RU,1675655693
397,klamath falls,42.2249,-121.7817,1.650000000000034,83,100,0.45,US,1675655485
398,makokou,0.5738,12.8642,20.07000000000005,96,28,0.8,GA,1675655701
399,biltine,14.5333,20.9167,20.57000000000005,14,89,3.96,TD,1675655701
400,polessk,54.862,21.1028,0.5400000000000205,81,100,4.69,RU,1675655702
401,mahon,39.8885,4.2658,11.310000000000002,62,100,10.8,ES,1675655704
402,vinh long,10.25,105.9667,29.99000000000001,46,35,3.95,VN,1675655439
403,inongo,-1.95,18.2667,22.220000000000027,90,90,2.95,CD,1675655710
404,igarka,67.4667,86.5833,-21.099999999999966,99,99,2.41,RU,1675655712
405,okhotsk,59.3833,143.3,-21.919999999999987,75,99,5.69,RU,1675655714
406,blyznyuky,48.8578,36.5551,-6.5499999999999545,91,89,5.12,UA,1675655717
407,carutapera,-1.195,-46.02,24.24000000000001,93,100,2.42,BR,1675655722
408,kudahuvadhoo,2.6708,72.8944,27.200000000000045,77,100,1.45,MV,1675655733
409,birjand,32.8663,59.2211,-1.7399999999999523,74,0,3.09,IR,1675655544
410,pandan,14.0453,124.1694,26.370000000000005,87,34,5.16,PH,1675655751
411,khalkhal,37.6189,48.5258,-3.9399999999999977,87,100,1.68,IR,1675655752
412,yanam,16.7333,82.2167,27.439999999999998,52,11,1.69,IN,1675655631
413,victoria,22.2855,114.1577,22.760000000000048,83,98,2.24,HK,1675655484
414,bull savanna,17.8868,-77.5902,21.960000000000036,84,0,2.77,JM,1675655753
415,eganville,45.5334,-77.0994,1.1000000000000227,94,100,2.82,CA,1675655754
416,dingle,10.9995,122.6711,28.629999999999995,73,75,5.32,PH,1675655754
417,vrangel,42.7297,133.0839,-1.5499999999999545,43,6,3.53,RU,1675655755
418,pemba,-12.974,40.5178,24.390000000000043,94,75,2.68,MZ,1675655755
419,raudeberg,61.9875,5.1352,6.090000000000032,74,100,10.45,NO,1675655519
420,biak,-0.9131,122.8766,26.80000000000001,68,94,2.19,ID,1675655756
421,russell,32.3502,-85.1999,12.57000000000005,100,0,0.0,US,1675655542
422,wunstorf,52.4333,9.4167,2.2700000000000387,95,100,2.06,DE,1675655756
423,colares,38.7992,-9.4469,11.610000000000014,53,58,4.47,PT,1675655757
424,port keats,-14.25,129.55,33.04000000000002,37,97,0.83,AU,1675655757
425,hamamatsu,34.7,137.7333,13.79000000000002,43,90,7.15,JP,1675655758
426,wattegama,6.7989,81.4808,23.340000000000032,91,100,2.17,LK,1675655640
427,belmonte,-15.8631,-38.8828,25.379999999999995,84,0,3.77,BR,1675655759
428,kyra,49.5776,111.9753,-12.199999999999989,69,98,1.79,RU,1675655759
429,terrak,65.087,12.3715,4.930000000000007,96,100,4.31,NO,1675655760
430,beihai,21.4833,109.1,19.79000000000002,92,100,5.36,CN,1675655760
431,rajapalaiyam,9.45,77.5667,25.400000000000034,45,54,1.9,IN,1675655762
432,kodinsk,58.6881,99.1844,-11.049999999999955,93,100,2.76,RU,1675655763
433,derzhavinsk,51.1,66.3167,-9.259999999999991,96,100,0.9,KZ,1675655764
434,galle,6.0367,80.217,26.05000000000001,86,100,2.97,LK,1675655766
435,omboue,-1.5746,9.2618,25.360000000000014,86,100,1.11,GA,1675655767
436,soe,-9.8607,124.284,24.439999999999998,77,73,1.11,ID,1675655769
437,vestmannaeyjar,63.4427,-20.2734,4.730000000000018,62,100,13.01,IS,1675655770
438,yemtsa,63.0734,40.3329,-18.629999999999967,97,53,2.28,RU,1675655771
439,leningradskiy,69.3833,178.4167,-30.049999999999983,98,100,2.26,RU,1675655772
440,mecca,21.4267,39.8261,19.160000000000025,79,76,0.67,SA,1675655698
441,amalapuram,16.5833,82.0167,27.02000000000004,53,18,1.65,IN,1675655774
442,shasta lake,40.6804,-122.3708,6.010000000000048,87,18,2.01,US,1675655775
443,arica,-18.475,-70.3042,25.75,73,40,2.06,CL,1675655657
444,miraflores,19.2167,-98.8083,15.020000000000039,44,0,0.64,MX,1675655779
445,bowling green,36.9903,-86.4436,8.410000000000025,73,0,1.54,US,1675655661
446,san martin,-33.081,-68.4681,29.30000000000001,40,3,4.64,AR,1675655781
447,la ronge,55.1001,-105.2842,-0.8599999999999568,80,75,3.09,CA,1675655782
448,abu dhabi,24.4667,54.3667,18.870000000000005,91,0,1.03,AE,1675655783
449,brive-la-gaillarde,45.25,1.5,2.930000000000007,32,44,2.53,FR,1675655783
450,riachao das neves,-11.7461,-44.91,23.360000000000014,69,99,1.26,BR,1675655784
451,novonukutskiy,53.7002,102.7117,-16.389999999999986,98,100,0.81,RU,1675655785
452,saldanha,-33.0117,17.9442,17.03000000000003,91,0,2.82,ZA,1675655786
453,pingyi,35.5006,117.6308,10.830000000000041,47,18,1.7,CN,1675655757
454,rio grande,-32.035,-52.0986,20.700000000000045,81,2,0.13,BR,1675655788
455,seydi,39.4816,62.9137,4.270000000000039,53,99,4.21,TM,1675655789
456,marsh harbour,26.5412,-77.0636,23.32000000000005,79,94,7.55,BS,1675655535
457,los aquijes,-14.0967,-75.6908,22.910000000000025,75,33,0.66,PE,1675655792
458,alamosa,37.4695,-105.87,1.6100000000000136,42,0,5.09,US,1675655792
459,jalu,29.0331,21.5482,10.470000000000027,48,85,6.55,LY,1675655793
460,maniitsoq,65.4167,-52.9,-14.879999999999995,85,100,2.88,GL,1675655793
461,labuhan,-6.8844,112.2051,26.450000000000045,82,100,2.83,ID,1675655793
462,praia,14.9215,-23.5087,19.920000000000016,65,86,9.54,CV,1675655794
463,margate,51.3813,1.3862,5.390000000000043,89,58,0.45,GB,1675655794
464,tevaitoa,-16.7833,-151.5,27.480000000000018,75,10,6.47,PF,1675655795
465,dudinka,69.4058,86.1778,-16.879999999999995,100,100,1.75,RU,1675655795
466,kalevala,65.2,31.1667,-9.849999999999966,97,100,1.8,RU,1675655796
467,novaya zaimka,56.4857,66.9241,-20.829999999999984,100,99,0.81,RU,1675655796
468,stodolishche,54.1859,32.6492,-9.799999999999955,97,92,2.12,RU,1675655797
469,ketchikan,55.3422,-131.6461,3.990000000000009,93,100,9.26,US,1675655797
470,san quintin,30.4833,-115.95,13.720000000000027,84,61,9.6,MX,1675655798
471,steinbach,50.1667,8.5667,3.990000000000009,87,100,2.57,DE,1675655798
472,solenzo,12.1833,-4.0833,23.310000000000002,16,3,3.11,BF,1675655799
473,manzhouli,49.6,117.4333,-16.47999999999996,87,16,4.52,CN,1675655799
474,mali,12.079,-12.2982,16.730000000000018,23,98,1.56,GN,1675655800
475,la sierra,2.1784,-76.7626,13.340000000000032,89,57,2.2,CO,1675655800
476,port-cartier,50.0334,-66.8654,-14.17999999999995,97,100,1.93,CA,1675655800
477,chaplynka,46.3651,33.5403,-2.2299999999999613,79,70,7.14,UA,1675655801
478,caxito,-8.5785,13.6643,23.5,93,98,1.12,AO,1675655801
479,walvis bay,-22.9575,14.5053,17.420000000000016,87,100,1.4,NA,1675655802
480,clyde river,70.4692,-68.5914,-29.869999999999976,63,0,2.06,CA,1675655802
481,galeana,24.8333,-100.0667,8.740000000000009,61,0,1.45,MX,1675655803
482,nhulunbuy,-12.2333,136.7667,31.340000000000032,66,40,5.14,AU,1675655804
483,macamic,48.7502,-78.9996,-24.899999999999977,100,57,1.86,CA,1675655805
484,camocim,-2.9022,-40.8411,24.230000000000018,91,25,2.99,BR,1675655806
485,belle fourche,44.6714,-103.8522,9.170000000000016,60,95,3.95,US,1675655747
486,toora-khem,52.4675,96.11,-13.049999999999955,93,95,0.71,RU,1675655684
487,nueve de julio,-35.4444,-60.8831,19.980000000000018,77,86,3.03,AR,1675655808
488,rey bouba,8.6724,14.1786,22.200000000000045,17,96,1.19,CM,1675655808
489,churapcha,62.0025,132.4325,-31.68999999999997,92,100,2.03,RU,1675655809
490,gornopravdinsk,60.05,69.9,-17.809999999999974,98,100,0.58,RU,1675655809
491,camrose,53.0168,-112.8353,0.7400000000000091,81,100,5.28,CA,1675655810
492,guane,22.2025,-84.0875,20.99000000000001,91,14,1.61,CU,1675655811
493,saint-felicien,48.6501,-72.4491,-12.620000000000005,85,100,2.57,CA,1675655811
494,tevriz,57.509,72.4042,-16.189999999999998,97,100,1.15,RU,1675655812
495,fairbanks,64.8378,-147.7164,-19.99999999999997,84,0,2.06,US,1675655754
496,turzovka,49.4043,18.6226,-8.449999999999989,85,0,1.54,SK,1675655812
497,zhuhai,22.2769,113.5678,20.879999999999995,82,40,2.06,CN,1675655784
498,yantal,56.8471,105.2542,-9.579999999999984,94,100,3.86,RU,1675655813
499,pangnirtung,66.1451,-65.7125,-37.40999999999997,92,99,2.26,CA,1675655813
500,yeppoon,-23.1333,150.7333,30.879999999999995,75,66,7.4,AU,1675655814
501,kloulklubed,7.0419,134.2556,28.110000000000014,75,98,9.2,PW,1675655814
502,chickasha,35.0526,-97.9364,12.5,76,0,3.6,US,1675655563
503,belousovka,50.1339,82.5239,-1.5299999999999727,80,100,4.0,KZ,1675655815
504,quatre cocos,-20.2078,57.7625,28.379999999999995,76,94,4.65,MU,1675655691
505,koumac,-20.5667,164.2833,31.590000000000032,64,98,1.43,NC,1675655818
506,baruun-urt,46.6806,113.2792,-12.489999999999952,75,19,2.33,MN,1675655818
507,aljezur,37.3191,-8.8033,10.120000000000005,66,1,1.6,PT,1675655818
508,ayagoz,47.9714,80.4392,-4.25,96,99,5.79,KZ,1675655819
509,neuquen,-38.9516,-68.0591,27.939999999999998,28,0,6.69,AR,1675655646
510,taraz,42.9,71.3667,-3.769999999999982,93,100,4.0,KZ,1675655820
511,port lincoln,-34.7333,135.8667,21.510000000000048,59,2,5.03,AU,1675655820
512,ust-ordynskiy,52.805,104.7508,-16.269999999999982,97,100,0.19,RU,1675655821
513,ures,29.4333,-110.4,18.83000000000004,29,5,0.76,MX,1675655821
514,sainte-luce,14.4673,-60.9271,22.090000000000032,94,75,2.06,MQ,1675655821
515,zabaykalsk,49.6333,117.3167,-17.399999999999977,91,24,4.57,RU,1675655822
516,darhan,49.4867,105.9228,-16.659999999999968,88,67,0.88,MN,1675655784
517,bijar,35.8668,47.6051,-8.909999999999968,98,100,1.28,IR,1675655824
518,faanui,-16.4833,-151.75,27.53000000000003,74,12,6.63,PF,1675655825
519,sai buri,6.7013,101.6168,26.840000000000032,79,100,3.41,TH,1675655825
520,byron bay,-28.65,153.6167,29.410000000000025,55,88,3.9,AU,1675655826
521,ailigandi,9.2333,-78.0167,25.230000000000018,87,61,5.02,PA,1675655827
522,upleta,21.7333,70.2833,22.950000000000045,54,6,3.06,IN,1675655827
523,santa maria,-29.6842,-53.8069,18.610000000000014,100,0,0.0,BR,1675655828
524,hofn,64.2539,-15.2082,4.78000000000003,85,100,15.38,IS,1675655829
525,brookhaven,31.5791,-90.4407,8.810000000000002,91,0,0.38,US,1675655829
526,banmankhi,25.8833,87.1833,20.74000000000001,46,0,3.55,IN,1675655830
527,tezu,27.9167,96.1667,23.950000000000045,23,38,1.95,IN,1675655831
528,stanesti,43.9167,25.8333,-1.9099999999999682,61,100,2.88,RO,1675655831
529,alofi,-19.0595,-169.9187,23.939999999999998,94,98,2.06,NU,1675655832
530,coihueco,-36.6167,-71.8333,18.200000000000045,53,0,2.61,CL,1675655833
531,roquetas de mar,36.7642,-2.6148,9.230000000000018,70,0,4.24,ES,1675655834
532,salisbury,51.0693,-1.7957,0.4300000000000068,94,100,1.54,GB,1675655592
533,kizilskoye,52.7255,58.8937,-17.74999999999997,99,99,1.54,RU,1675655835
534,gamba,-2.65,10.0,25.5,83,100,2.27,GA,1675655837
535,borisoglebskiy,57.2586,39.1508,-15.189999999999998,99,100,1.73,RU,1675655837
536,berdigestyakh,62.0989,126.6992,-32.93999999999997,93,100,1.89,RU,1675655838
537,xiaoweizhai,26.1903,107.5125,9.080000000000041,89,100,0.94,CN,1675655839
538,palmas,-10.2128,-48.3603,22.930000000000007,94,20,2.06,BR,1675655678
539,san ignacio,17.1561,-89.0714,21.08000000000004,94,0,0.0,BZ,1675655840
540,camacha,33.0833,-16.3333,13.680000000000007,63,40,4.63,PT,1675655841
541,tomball,30.0972,-95.6161,17.54000000000002,87,0,1.54,US,1675655841
542,keta,5.9179,0.9879,28.120000000000005,84,100,5.08,GH,1675655842
543,tsabong,-26.0217,22.401,23.850000000000023,66,70,4.41,BW,1675655842
544,moerai,-22.4333,-151.3333,27.02000000000004,69,58,4.38,PF,1675655843
545,tiznit,29.5833,-9.5,9.0,42,5,1.22,MA,1675655844
546,taltal,-25.4,-70.4833,20.850000000000023,84,5,1.41,CL,1675655844
